$GPGGA,072019.000,5158.8843,N,00539.4675,E,1,07,1.3,-0.9,M,47.2,M,,0000
$DATA1,18107,10000,63722,40877
$DATA2,20,6,1012,7,58,1,0,8
$GPGGA,072021.000,5158.8843,N,00539.4675,E,1,07,1.3,-0.9,M,47.2,M,,0000
$DATA1,18175,10000,62595,40877
$DATA2,20,6,1012,7,58,2,0,3
$GPGGA,072023.000,5158.8843,N,00539.4675,E,1,07,1.3,-1.0,M,47.2,M,,0000
$DATA1,18244,10000,62595,40877
$DATA2,20,6,1012,7,57,9,0,6
$GPGGA,072025.000,5158.8843,N,00539.4675,E,1,07,1.3,-1.0,M,47.2,M,,0000
$DATA1,18226,10000,62595,40877
$DATA2,20,7,1012,7,57,9,0,4
$GPGGA,072027.000,5158.8843,N,00539.4674,E,1,07,1.3,-1.0,M,47.2,M,,0000
$DATA1,18412,10000,62595,40877
$DATA2,20,7,1012,7,58,9,0,7
$GPGGA,072029.000,5158.8843,N,00539.4674,E,1,07,1.3,-1.0,M,47.2,M,,0000
$DATA1,18299,10000,62595,41296
$DATA2,20,7,1012,7,59,8,0,8
$GPGGA,072031.000,5158.8843,N,00539.4674,E,1,07,1.3,-1.0,M,47.2,M,,0000
$DATA1,18276,10000,62595,41296
$DATA2,20,6,1012,6,59,7,1,7
$GPGGA,072033.000,5158.8843,N,00539.4674,E,1,07,1.3,-1.0,M,47.2,M,,0000
$DATA1,18514,10000,63722,41296
$DATA2,20,4,1012,6,59,1,2
$GPGGA,072035.000,5158.8843,N,00539.4675,E,1,07,1.3,-1.0,M,47.2,M,,0000
$DATA1,18411,10000,66095,41723
$DATA2,20,1,1012,7,58,8,0,3
$GPGGA,072037.000,5158.8843,N,00539.4675,E,1,07,1.3,-1.0,M,47.2,M,,0000
$DATA1,18596,10000,68640,42157
$DATA2,19,9,1012,6,59,3,1,2
$GPGGA,072039.000,5158.8843,N,00539.4675,E,1,07,1.3,-1.0,M,47.2,M,,0000
$DATA1,18111,10000,69983,42157
$DATA2,19,7,1012,6,59,6,1,6
$GPGGA,072041.000,5158.8843,N,00539.4675,E,1,07,1.3,-1.0,M,47.2,M,,0000
$DATA1,18364,10000,72825,42599
$DATA2,19,6,1012,6,60,2,1,5
$GPGGA,072043.000,5158.8843,N,00539.4675,E,1,07,1.3,-1.0,M,47.2,M,,0000
$DATA1,18248,10000,72825,42599
$DATA2,19,4,1012,7,60,9,0,5
$GPGGA,072045.000,5158.8843,N,00539.4675,E,1,07,1.3,-1.0,M,47.2,M,,0000
$DATA1,18368,10000,74329,42599
$DATA2,19,2,1012,6,61,4,1,7
$GPGGA,072047.000,5158.8843,N,00539.4675,E,1,07,1.3,-0.9,M,47.2,M,,0000
$DATA1,18197,10000,75894,42599
$DATA2,19,1,1012,8,62,0,1
$GPGGA,072049.000,5158.8843,N,00539.4675,E,1,07,1.3,-0.9,M,47.2,M,,0000
$DATA1,18206,10000,77522,43049
$DATA2,18,9,1012,5,62,4,2,3
$GPGGA,072051.000,5158.8843,N,00539.4679,E,1,07,1.3,-0.6,M,47.2,M,,0000
$DATA1,18432,10000,95843,48038
$DATA2,18,4,1012,2,62,5,5,2
$GPGGA,072053.000,5158.8846,N,00539.4687,E,1,07,1.3,0.9,M,47.2,M,,0000
$DATA1,18204,10000,86775,44449
$DATA2,18,3,1011,7,62,1,8,6
$GPGGA,072054.000,5158.8848,N,00539.4693,E,1,07,1.3,1.5,M,47.2,M,,0000
$DATA1,18541,10000,86775,43507
$DATA2,18,3,1011,6,61,5,10
$GPGGA,072056.000,5158.8849,N,00539.4701,E,1,07,1.3,2.3,M,47.2,M,,0000
$DATA1,18176,10000,84760,43049
$DATA2,18,1,1011,9,61,7,1
$GPGGA,072058.000,5158.8854,N,00539.4705,E,1,07,1.3,2.8,M,47.2,M,,0000
$DATA1,18266,10000,82833,43049
$DATA2,17,7,1012,61,6,5
$GPGGA,072100.000,5158.8855,N,00539.4698,E,1,07,1.3,2.5,M,47.2,M,,0000
$DATA1,18386,10000,88884,43973
$DATA2,17,4,1011,9,61,2,7,2
$GPGGA,072102.000,5158.8846,N,00539.4689,E,1,07,1.3,2.3,M,47.2,M,,0000
$DATA1,18277,10000,149550,55504
$DATA2,17,1011,8,61,7,8,4
$GPGGA,072104.000,5158.8822,N,00539.4696,E,1,07,1.3,1.9,M,47.2,M,,0000
$DATA1,18138,10000,155688,50321
$DATA2,16,8,1012,1,62,5,5,5
$GPGGA,072106.000,5158.8802,N,00539.4701,E,1,07,1.3,1.3,M,47.2,M,,0000
$DATA1,18421,10000,113444,44933
$DATA2,16,6,1012,63,3,6,3
$GPGGA,072108.000,5158.8793,N,00539.4699,E,1,07,1.3,1.7,M,47.2,M,,0000
$DATA1,18513,10000,101092,43973
$DATA2,16,4,1012,1,64,3,5,5
$GPGGA,072110.000,5158.8789,N,00539.4686,E,1,07,1.3,1.7,M,47.2,M,,0000
$DATA1,18111,10000,95843,45426
$DATA2,16,1,1012,2,65,2,4,7
$GPGGA,072112.000,5158.8781,N,00539.4668,E,1,07,1.3,1.8,M,47.2,M,,0000
$DATA1,18448,10000,103930,46440
$DATA2,15,9,1012,3,66,4,4,2
$GPGGA,072116.000,5158.8767,N,00539.4632,E,1,07,1.3,2.5,M,47.2,M,,0000
$DATA1,18182,10000,113444,46962
$DATA2,15,5,1012,4,68,3,4
$GPGGA,072118.000,5158.8762,N,00539.4610,E,1,07,1.3,3.1,M,47.2,M,,0000
$DATA1,18180,10000,117000,46440
$DATA2,15,3,1012,3,68,8,3,8
$GPGGA,072120.000,5158.8757,N,00539.4587,E,1,07,1.3,3.3,M,47.2,M,,0000
$DATA1,18520,10000,133676,46962
$DATA2,15,2,1012,4,69,3,3,2
$GPGGA,072122.000,5158.8752,N,00539.4567,E,1,07,1.3,3.3,M,47.2,M,,0000
$DATA1,18294,10000,124800,45426
$DATA2,15,1,1012,4,69,8,2,9
$GPGGA,072124.000,5158.8746,N,00539.4545,E,1,07,1.3,3.4,M,47.2,M,,0000
$DATA1,18555,10000,138589,49156
$DATA2,14,9,1012,4,70,5,2,9
$GPGGA,072126.000,5158.8737,N,00539.4515,E,1,07,1.3,3.7,M,47.2,M,,0000
$DATA1,18416,10000,149550,52801
$DATA2,14,7,1012,5,71,2,2,6
$GPGGA,072128.000,5158.8727,N,00539.4480,E,1,07,1.3,4.0,M,47.2,M,,0000
$DATA1,18378,10000,169565,58461
$DATA2,14,5,1012,4,71,9,2,9
$GPGGA,072130.000,5158.8717,N,00539.4441,E,1,07,1.3,4.0,M,47.2,M,,0000
$DATA1,18470,10000,177450,54806
$DATA2,14,3,1012,5,72,8,2,3
$GPGGA,072132.000,5158.8703,N,00539.4398,E,1,07,1.3,4.3,M,47.2,M,,0000
$DATA1,18472,10000,217750,56949
$DATA2,14,2,1012,2,73,7,4,9
$GPGGA,072134.000,5158.8688,N,00539.4348,E,1,07,1.3,4.8,M,47.2,M,,0000
$DATA1,18140,10000,217750,55504
$DATA2,14,1,1012,4,74,4,3,2
$GPGGA,072136.000,5158.8666,N,00539.4298,E,1,07,1.3,4.6,M,47.2,M,,0000
$DATA1,18275,10000,186086,47495
$DATA2,14,1012,4,75,3
$GPGGA,072140.000,5158.8628,N,00539.4159,E,1,07,1.3,3.9,M,47.2,M,,0000
$DATA1,18499,10000,230788,49733
$DATA2,13,9,1011,9,76,1,7,4
$GPGGA,072142.000,5158.8609,N,00539.4087,E,1,07,1.3,3.6,M,47.2,M,,0000
$DATA1,18219,10000,245456,49156
$DATA2,13,8,1012,1,76,6,5,3
$GPGGA,072144.000,5158.8603,N,00539.4047,E,1,07,1.3,3.5,M,47.2,M,,0000
$DATA1,18120,10000,206084,40877
$DATA2,13,8,1012,2,77,5
$GPGGA,072146.000,5158.8614,N,00539.4033,E,1,07,1.3,3.1,M,47.2,M,,0000
$DATA1,18427,10000,149550,37050
$DATA2,13,8,1012,77,4,6,1
$GPGGA,072148.000,5158.8632,N,00539.4027,E,1,07,1.3,2.9,M,47.2,M,,0000
$DATA1,18247,10000,129090,36018
$DATA2,13,8,1012,77,7,6,5
$GPGGA,072150.000,5158.8655,N,00539.4019,E,1,07,1.3,2.5,M,47.2,M,,0000
$DATA1,18149,10000,113444,35685
$DATA2,13,8,1011,8,77,9,7,8
$GPGGA,072152.000,5158.8673,N,00539.4011,E,1,07,1.3,2.3,M,47.2,M,,0000
$DATA1,18571,10000,110091,36357
$DATA2,13,8,1011,7,78,1,9
$GPGGA,072154.000,5158.8690,N,00539.4003,E,1,07,1.3,2.3,M,47.2,M,,0000
$DATA1,18351,10000,110091,37050
$DATA2,13,8,1011,6,78,3,9,4
$GPGGA,072156.000,5158.8706,N,00539.3993,E,1,07,1.3,2.5,M,47.2,M,,0000
$DATA1,18193,10000,110091,38133
$DATA2,13,8,1011,6,78,5,10,1
$GPGGA,072158.000,5158.8721,N,00539.3978,E,1,07,1.3,2.7,M,47.2,M,,0000
$DATA1,18505,10000,162338,44449
$DATA2,13,8,1011,6,78,6,9,8
$GPGGA,072200.000,5158.8741,N,00539.3958,E,1,07,1.3,2.6,M,47.2,M,,0000
$DATA1,18539,10000,245456,51535
$DATA2,13,8,1011,5,78,5,10,7
$GPGGA,072202.000,5158.8766,N,00539.3932,E,1,07,1.3,2.8,M,47.2,M,,0000
$DATA1,18419,10000,230788,50922
$DATA2,14,1011,7,78,4,9,3
$GPGGA,072206.000,5158.8801,N,00539.3895,E,1,07,1.3,2.7,M,47.2,M,,0000
$DATA1,18393,10000,124800,38133
$DATA2,14,1,1009,9,78,5,24,3
$GPGGA,072208.000,5158.8807,N,00539.3914,E,1,05,1.5,2.8,M,47.2,M,,0000
$DATA1,18134,10000,103930,37406
$DATA2,14,2,1011,5,77,9,10,2
$GPGGA,072210.000,5158.8811,N,00539.3945,E,1,06,1.3,3.2,M,47.2,M,,0000
$DATA1,18549,10000,101092,38506
$DATA2,14,2,1011,6,77,4,10,1
$GPGGA,072212.000,5158.8821,N,00539.3967,E,1,07,1.3,3.5,M,47.2,M,,0000
$DATA1,18564,10000,106925,38506
$DATA2,14,2,1011,6,76,9,9,9
$GPGGA,072214.000,5158.8834,N,00539.3981,E,1,07,1.3,3.7,M,47.2,M,,0000
$DATA1,18225,10000,106925,38885
$DATA2,14,2,1011,5,76,4,10,8
$GPGGA,072216.000,5158.8849,N,00539.3992,E,1,05,1.6,4.1,M,47.2,M,,0000
$DATA1,18528,10000,103930,39270
$DATA2,14,2,1011,6,76,9,5
$GPGGA,072218.000,5158.8867,N,00539.4000,E,1,07,1.3,4.0,M,47.2,M,,0000
$DATA1,18150,10000,95843,39270
$DATA2,14,3,1011,6,75,7,10
$GPGGA,072222.000,5158.8909,N,00539.4046,E,1,07,1.3,4.8,M,47.2,M,,0000
$DATA1,18226,10000,88884,40465
$DATA2,14,5,1011,4,75,2,11,6
$GPGGA,072224.000,5158.8930,N,00539.4082,E,1,07,1.3,4.7,M,47.2,M,,0000
$DATA1,18237,10000,101092,45426
$DATA2,14,5,1011,3,74,7,12,3
$GPGGA,072226.000,5158.8951,N,00539.4123,E,1,07,1.3,4.6,M,47.2,M,,0000
$DATA1,18218,10000,95843,43049
$DATA2,14,6,1011,3,74,3,12,2
$GPGGA,072228.000,5158.8962,N,00539.4152,E,1,07,1.3,4.4,M,47.2,M,,0000
$DATA1,18293,10000,91093,41723
$DATA2,14,7,1011,5,73,9,11
$GPGGA,072230.000,5158.8975,N,00539.4184,E,1,07,1.3,4.5,M,47.2,M,,0000
$DATA1,18417,10000,88884,41723
$DATA2,14,7,1011,4,73,6,11
$GPGGA,072232.000,5158.8993,N,00539.4224,E,1,07,1.3,4.4,M,47.2,M,,0000
$DATA1,18393,10000,86775,41296
$DATA2,14,7,1011,4,73,5,11,5
$GPGGA,072234.000,5158.9013,N,00539.4263,E,1,08,1.0,4.4,M,47.2,M,,0000
$DATA1,18438,10000,86775,41723
$DATA2,14,8,1011,4,73,4,11,2
$GPGGA,072236.000,5158.9032,N,00539.4303,E,1,08,1.0,4.6,M,47.2,M,,0000
$DATA1,18228,10000,84760,42157
$DATA2,14,8,1011,4,73,3,11,4
$GPGGA,072240.000,5158.9068,N,00539.4368,E,1,08,1.0,4.7,M,47.2,M,,0000
$DATA1,18548,10000,84760,42599
$DATA2,14,9,1011,2,72,9,12,8
$GPGGA,072242.000,5158.9077,N,00539.4379,E,1,07,1.0,4.6,M,47.2,M,,0000
$DATA1,18550,10000,101092,45426
$DATA2,15,1011,1,72,7,14,2
$GPGGA,072244.000,5158.9086,N,00539.4358,E,1,08,1.0,4.6,M,47.2,M,,0000
$DATA1,18412,10000,117000,49156
$DATA2,14,9,1011,6,72,4,9,9
$GPGGA,072246.000,5158.9095,N,00539.4341,E,1,08,1.0,4.6,M,47.2,M,,0000
$DATA1,18211,10000,101092,44449
$DATA2,14,9,1011,3,72,3,12,2
$GPGGA,072248.000,5158.9084,N,00539.4358,E,1,08,1.0,4.3,M,47.2,M,,0000
$DATA1,18512,10000,93410,43049
$DATA2,15,1009,6,72,1,26,1
$GPGGA,072250.000,5158.9063,N,00539.4382,E,1,08,1.0,4.4,M,47.2,M,,0000
$DATA1,18226,10000,88884,42599
$DATA2,15,1010,71,9,22,7
$GPGGA,072252.000,5158.9050,N,00539.4383,E,1,08,1.0,4.5,M,47.2,M,,0000
$DATA1,18261,10000,86775,42599
$DATA2,15,1010,4,71,9,20
$GPGGA,072254.000,5158.9027,N,00539.4398,E,1,08,1.0,4.6,M,47.2,M,,0000
$DATA1,18308,10000,86775,43049
$DATA2,15,1010,3,71,8,20,2
$GPGGA,072256.000,5158.8995,N,00539.4420,E,1,08,1.0,4.7,M,47.2,M,,0000
$DATA1,18338,10000,86775,43049
$DATA2,15,1009,7,71,9,25,4
$GPGGA,072258.000,5158.8968,N,00539.4437,E,1,08,1.0,4.7,M,47.2,M,,0000
$DATA1,18291,10000,84760,43049
$DATA2,15,1,1009,9,71,8,24
$GPGGA,072300.000,5158.8953,N,00539.4453,E,1,08,1.0,5.0,M,47.2,M,,0000
$DATA1,18501,10000,84760,43049
$DATA2,15,1,1009,8,71,7,24,5
$GPGGA,072302.000,5158.8956,N,00539.4476,E,1,08,1.0,5.4,M,47.2,M,,0000
$DATA1,18598,10000,93410,43507
$DATA2,15,2,1009,8,71,6,24,9
$GPGGA,072304.000,5158.8966,N,00539.4501,E,1,08,1.0,5.8,M,47.2,M,,0000
$DATA1,18552,10000,91093,43973
$DATA2,15,3,1009,8,71,3,25,2
$GPGGA,072306.000,5158.8978,N,00539.4521,E,1,08,1.0,6.3,M,47.2,M,,0000
$DATA1,18167,10000,88884,43973
$DATA2,15,3,1010,6,71,1,18,2
$GPGGA,072308.000,5158.8982,N,00539.4533,E,1,07,1.1,6.3,M,47.2,M,,0000
$DATA1,18306,10000,98400,46962
$DATA2,15,3,1010,3,71,20,4
$GPGGA,072310.000,5158.8966,N,00539.4560,E,1,06,1.3,6.1,M,47.2,M,,0000
$DATA1,18495,10000,117000,52161
$DATA2,15,2,1010,71,1,22,7
$GPGGA,072312.000,5158.8941,N,00539.4589,E,1,08,1.0,6.1,M,47.2,M,,0000
$DATA1,18179,10000,101092,46440
$DATA2,15,2,1009,9,71,3,23,9
$GPGGA,072314.000,5158.8917,N,00539.4605,E,1,08,1.0,6.0,M,47.2,M,,0000
$DATA1,18222,10000,91093,43973
$DATA2,15,2,1009,9,71,4,24
$GPGGA,072316.000,5158.8900,N,00539.4616,E,1,07,1.1,6.4,M,47.2,M,,0000
$DATA1,18477,10000,88884,43507
$DATA2,15,3,1009,8,71,4,24,8
$GPGGA,072318.000,5158.8885,N,00539.4634,E,1,08,1.0,6.3,M,47.2,M,,0000
$DATA1,18501,10000,86775,43507
$DATA2,15,3,1009,8,71,3,25,1
$GPGGA,072320.000,5158.8871,N,00539.4660,E,1,08,1.0,6.0,M,47.2,M,,0000
$DATA1,18119,10000,84760,43507
$DATA2,15,3,1009,9,71,1,24,3
$GPGGA,072324.000,5158.8841,N,00539.4710,E,1,08,1.0,5.7,M,47.2,M,,0000
$DATA1,18229,10000,84760,43973
$DATA2,15,5,1009,7,70,9,25,7
$GPGGA,072326.000,5158.8836,N,00539.4708,E,1,08,1.0,5.5,M,47.2,M,,0000
$DATA1,18397,10000,84760,43973
$DATA2,15,6,1009,6,70,7,26,4
$GPGGA,072328.000,5158.8838,N,00539.4709,E,1,08,1.0,5.5,M,47.2,M,,0000
$DATA1,18397,10000,103930,47495
$DATA2,15,5,1011,5,70,5,10,3
$GPGGA,072330.000,5158.8841,N,00539.4710,E,1,08,1.0,5.4,M,47.2,M,,0000
$DATA1,18502,10000,124800,51535
$DATA2,15,2,1011,7,70,5,9,1
$GPGGA,072332.000,5158.8844,N,00539.4708,E,1,08,1.0,5.5,M,47.2,M,,0000
$DATA1,18487,10000,138589,53455
$DATA2,14,9,1011,7,70,8,9,3
$GPGGA,072334.000,5158.8846,N,00539.4689,E,1,08,1.0,5.4,M,47.2,M,,0000
$DATA1,18373,10000,149550,56218
$DATA2,14,7,1011,4,71,3,11,2
$GPGGA,072336.000,5158.8845,N,00539.4674,E,1,08,1.0,5.2,M,47.2,M,,0000
$DATA1,18516,10000,195585,58461
$DATA2,14,5,1011,4,72,1,11,4
$GPGGA,072338.000,5158.8846,N,00539.4669,E,1,08,1.0,5.1,M,47.2,M,,0000
$DATA1,18433,10000,217750,52161
$DATA2,14,4,1011,6,72,8,9,5
$GPGGA,072340.000,5158.8847,N,00539.4678,E,1,08,1.0,4.9,M,47.2,M,,0000
$DATA1,18376,10000,169565,44933
$DATA2,14,3,1011,7,73,5,9,3
$GPGGA,072342.000,5158.8846,N,00539.4690,E,1,08,1.0,4.7,M,47.2,M,,0000
$DATA1,18539,10000,177450,50321
$DATA2,14,2,1011,6,74,9,6
$GPGGA,072344.000,5158.8846,N,00539.4682,E,1,08,1.0,4.8,M,47.2,M,,0000
$DATA1,18277,10000,177450,48038
$DATA2,14,1,1011,6,74,4,9,8
$GPGGA,072346.000,5158.8845,N,00539.4664,E,1,08,1.0,5.1,M,47.2,M,,0000
$DATA1,18350,10000,155688,45426
$DATA2,14,1,1011,8,74,8,8,2
$GPGGA,072348.000,5158.8843,N,00539.4648,E,1,08,1.0,5.3,M,47.2,M,,0000
$DATA1,18505,10000,162338,49733
$DATA2,14,1,1011,6,75,2,10,2
$GPGGA,072350.000,5158.8839,N,00539.4636,E,1,06,1.3,5.6,M,47.2,M,,0000
$DATA1,18311,10000,169565,54123
$DATA2,14,1011,7,75,6,9,3
$GPGGA,072352.000,5158.8839,N,00539.4619,E,1,08,1.0,5.7,M,47.2,M,,0000
$DATA1,18371,10000,138589,43973
$DATA2,14,1011,7,75,7,8,8
$GPGGA,072354.000,5158.8836,N,00539.4595,E,1,08,1.0,5.8,M,47.2,M,,0000
$DATA1,18155,10000,169565,46440
$DATA2,14,1011,6,75,8,9,8
$GPGGA,072356.000,5158.8835,N,00539.4569,E,1,06,1.5,5.7,M,47.2,M,,0000
$DATA1,18186,10000,177450,43507
$DATA2,14,1011,7,76,8,7
$GPGGA,072358.000,5158.8835,N,00539.4535,E,1,08,1.0,5.3,M,47.2,M,,0000
$DATA1,18596,10000,206084,48038
$DATA2,13,9,1011,7,76,1,8,6
$GPGGA,072400.000,5158.8837,N,00539.4486,E,1,08,1.0,5.4,M,47.2,M,,0000
$DATA1,18473,10000,245456,54806
$DATA2,13,9,1011,7,76,4,9
$GPGGA,072402.000,5158.8841,N,00539.4418,E,1,08,1.0,5.5,M,47.2,M,,0000
$DATA1,18312,10000,230788,56949
$DATA2,13,8,1011,5,76,6,10,5
$GPGGA,072404.000,5158.8846,N,00539.4336,E,1,08,1.0,5.3,M,47.2,M,,0000
$DATA1,18354,10000,230788,54806
$DATA2,13,8,1011,6,76,7,9,7
$GPGGA,072406.000,5158.8852,N,00539.4253,E,1,08,1.0,5.5,M,47.2,M,,0000
$DATA1,18152,10000,217750,52161
$DATA2,13,8,1011,1,76,8,14,3
$GPGGA,072408.000,5158.8861,N,00539.4183,E,1,08,1.0,5.6,M,47.2,M,,0000
$DATA1,18498,10000,262080,57696
$DATA2,13,8,1011,5,76,8,10,6
$GPGGA,072410.000,5158.8868,N,00539.4155,E,1,08,1.0,5.6,M,47.2,M,,0000
$DATA1,18388,10000,245456,57696
$DATA2,13,9,1011,5,76,7,10,7
$GPGGA,072412.000,5158.8870,N,00539.4160,E,1,08,1.0,5.5,M,47.2,M,,0000
$DATA1,18599,10000,262080,48591
$DATA2,13,9,1011,5,76,7,10,4
$GPGGA,072414.000,5158.8871,N,00539.4166,E,1,07,1.1,5.3,M,47.2,M,,0000
$DATA1,18300,10000,303000,44933
$DATA2,13,8,1011,6,76,7,10
$GPGGA,072416.000,5158.8871,N,00539.4170,E,1,08,1.0,5.4,M,47.2,M,,0000
$DATA1,18277,10000,358800,45928
$DATA2,13,8,1011,6,76,7,9,8
$GPGGA,072418.000,5158.8871,N,00539.4170,E,1,08,1.0,5.4,M,47.2,M,,0000
$DATA1,18326,10000,328575,43507
$DATA2,13,8,1011,6,76,7,9,6
$GPGGA,072420.000,5158.8871,N,00539.4170,E,1,08,1.0,5.4,M,47.2,M,,0000
$DATA1,17622,10000,328575,39662
$DATA2,13,8,1011,1,76,8,13,9
$GPGGA,072422.000,5158.8871,N,00539.4171,E,1,08,1.0,5.4,M,47.2,M,,0000
$DATA1,16977,10000,303000,36701
$DATA2,13,8,1011,4,76,9,11,8
$GPGGA,072424.000,5158.8869,N,00539.4172,E,1,08,1.0,5.4,M,47.2,M,,0000
$DATA1,13738,10000,303000,39662
$DATA2,13,9,1011,5,77,10,4
$GPGGA,072428.000,5158.8869,N,00539.4171,E,1,08,1.0,5.3,M,47.2,M,,0000
$DATA1,9317,10000,281079,37050
$DATA2,13,9,1011,6,77,2,9,6
$GPGGA,072430.000,5158.8869,N,00539.4170,E,1,08,1.0,5.2,M,47.2,M,,0000
$DATA1,6133,10000,245456,34091
$DATA2,13,9,1011,3,77,1,12
$GPGGA,072432.000,5158.8869,N,00539.4170,E,1,08,1.0,5.3,M,47.2,M,,0000
$DATA1,5436,10000,281079,35356
$DATA2,13,9,1011,5,77,1,10,8
$GPGGA,072434.000,5158.8869,N,00539.4170,E,1,08,1.0,5.3,M,47.2,M,,0000
$DATA1,7904,10000,303000,37766
$DATA2,13,9,1011,4,77,1,11,6
$GPGGA,072436.000,5158.8869,N,00539.4170,E,1,08,1.0,5.4,M,47.2,M,,0000
$DATA1,10296,10000,328575,38133
$DATA2,13,9,1011,3,77,1,12,2
$GPGGA,072438.000,5158.8869,N,00539.4170,E,1,07,1.3,5.4,M,47.2,M,,0000
$DATA1,11797,10000,230788,38885
$DATA2,13,9,1011,4,77,11,2
$GPGGA,072440.000,5158.8868,N,00539.4170,E,1,08,1.0,5.5,M,47.2,M,,0000
$DATA1,13558,10000,206084,37406
$DATA2,13,8,1011,3,77,12,3
$GPGGA,072442.000,5158.8868,N,00539.4170,E,1,08,1.0,5.5,M,47.2,M,,0000
$DATA1,15001,10000,195585,39270
$DATA2,13,8,1011,5,77,1,11
$GPGGA,072444.000,5158.8868,N,00539.4170,E,1,08,1.0,5.6,M,47.2,M,,0000
$DATA1,15632,10000,195585,37406
$DATA2,13,8,1011,7,77,1,8,8
$GPGGA,072446.000,5158.8868,N,00539.4170,E,1,08,1.0,5.6,M,47.2,M,,0000
$DATA1,16796,10000,149550,33787
$DATA2,13,9,1011,7,77,2,8,8
$GPGGA,072448.000,5158.8870,N,00539.4184,E,1,08,1.0,5.8,M,47.2,M,,0000
$DATA1,17112,10000,133676,33191
$DATA2,13,9,1011,7,77,3,9,1
$GPGGA,072450.000,5158.8868,N,00539.4225,E,1,08,1.0,5.8,M,47.2,M,,0000
$DATA1,17619,10000,124800,33787
$DATA2,14,1011,6,77,3,9,4
$GPGGA,072452.000,5158.8865,N,00539.4277,E,1,07,1.3,5.9,M,47.2,M,,0000
$DATA1,17899,10000,129090,34714
$DATA2,14,1011,6,77,4,9,5
$GPGGA,072454.000,5158.8864,N,00539.4327,E,1,08,1.0,6.0,M,47.2,M,,0000
$DATA1,17702,10000,124800,35033
$DATA2,14,1011,7,77,3,9
$GPGGA,072456.000,5158.8863,N,00539.4374,E,1,08,1.0,6.0,M,47.2,M,,0000
$DATA1,17628,10000,129090,36357
$DATA2,14,1,1011,6,77,1,9,7
$GPGGA,072458.000,5158.8860,N,00539.4421,E,1,08,1.0,5.9,M,47.2,M,,0000
$DATA1,17917,10000,143867,38133
$DATA2,14,1,1011,6,77,9,6
$GPGGA,072500.000,5158.8858,N,00539.4465,E,1,08,1.0,5.7,M,47.2,M,,0000
$DATA1,17916,10000,133676,37766
$DATA2,14,1,1011,6,76,9,9,5
$GPGGA,072502.000,5158.8855,N,00539.4513,E,1,08,1.0,5.5,M,47.2,M,,0000
$DATA1,18143,10000,120778,38885
$DATA2,14,2,1011,4,76,8,11,1
$GPGGA,072504.000,5158.8851,N,00539.4563,E,1,08,1.0,5.4,M,47.2,M,,0000
$DATA1,18026,10000,110091,38506
$DATA2,14,2,1011,5,76,7,10,7
$GPGGA,072506.000,5158.8848,N,00539.4612,E,1,08,1.0,5.2,M,47.2,M,,0000
$DATA1,17840,10000,103930,37766
$DATA2,14,2,1011,7,76,5,8,9
$GPGGA,072508.000,5158.8845,N,00539.4641,E,1,08,1.0,5.0,M,47.2,M,,0000
$DATA1,18277,10000,95843,37406
$DATA2,14,3,1011,7,76,4,9
$GPGGA,072510.000,5158.8845,N,00539.4646,E,1,08,1.0,5.0,M,47.2,M,,0000
$DATA1,18011,10000,93410,37766
$DATA2,14,3,1011,8,76,3,8,4
$GPGGA,072512.000,5158.8845,N,00539.4645,E,1,08,1.0,5.0,M,47.2,M,,0000
$DATA1,18152,10000,91093,38133
$DATA2,14,3,1011,8,76,2,8,1
$GPGGA,072514.000,5158.8845,N,00539.4645,E,1,06,1.2,5.0,M,47.2,M,,0000
$DATA1,18248,10000,88884,38506
$DATA2,14,3,1011,7,76,2,8,6
$GPGGA,072516.000,5158.8845,N,00539.4645,E,1,08,1.0,5.0,M,47.2,M,,0000
$DATA1,18123,10000,88884,39270
$DATA2,14,4,1011,7,76,2,8,9
$GPGGA,072518.000,5158.8845,N,00539.4645,E,1,08,1.0,5.0,M,47.2,M,,0000
$DATA1,18196,10000,88884,39662
$DATA2,14,4,1011,8,76,2,8,1
$GPGGA,072520.000,5158.8845,N,00539.4645,E,1,08,1.0,5.0,M,47.2,M,,0000
$DATA1,18254,10000,88884,40060
$DATA2,14,4,1011,7,76,2,8,9
$GPGGA,072522.000,5158.8845,N,00539.4645,E,1,08,1.0,5.0,M,47.2,M,,0000
$DATA1,18170,10000,88884,40465
$DATA2,14,4,1011,7,76,2,9,1
$GPGGA,072524.000,5158.8844,N,00539.4646,E,1,08,1.0,5.0,M,47.2,M,,0000
$DATA1,18098,10000,88884,40877
$DATA2,14,5,1011,7,76,3,9
$GPGGA,072526.000,5158.8844,N,00539.4646,E,1,08,1.0,5.0,M,47.2,M,,0000
$DATA1,18143,10000,88884,40877
$DATA2,14,5,1011,7,76,5,8,7
$GPGGA,072528.000,5158.8844,N,00539.4646,E,1,06,1.3,5.0,M,47.2,M,,0000
$DATA1,18202,10000,88884,41296
$DATA2,14,5,1011,7,76,3,8,6
$GPGGA,072530.000,5158.8844,N,00539.4646,E,1,08,1.0,5.0,M,47.2,M,,0000
$DATA1,18100,10000,88884,41723
$DATA2,14,5,1011,7,76,2,9
$GPGGA,072532.000,5158.8844,N,00539.4646,E,1,08,1.0,5.0,M,47.2,M,,0000
$DATA1,18075,10000,93410,43049
$DATA2,14,5,1011,7,76,1,8,8
$GPGGA,072534.000,5158.8844,N,00539.4646,E,1,07,1.3,5.0,M,47.2,M,,0000
$DATA1,18118,10000,91093,42157
$DATA2,14,5,1011,7,76,1,8,8
$GPGGA,072536.000,5158.8844,N,00539.4646,E,1,07,1.3,5.0,M,47.2,M,,0000
$DATA1,18230,10000,91093,42157
$DATA2,14,5,1011,7,76,3,9,1
$GPGGA,072538.000,5158.8844,N,00539.4646,E,1,08,1.0,5.0,M,47.2,M,,0000
$DATA1,18006,10000,93410,42157
$DATA2,14,5,1011,7,76,3,8,8
$GPGGA,072540.000,5158.8843,N,00539.4650,E,1,08,1.0,4.9,M,47.2,M,,0000
$DATA1,18321,10000,110091,43507
$DATA2,14,5,1011,6,76,2,9,8
$GPGGA,072542.000,5158.8837,N,00539.4650,E,1,06,1.3,4.8,M,47.2,M,,0000
$DATA1,17968,10000,143867,46440
$DATA2,14,5,1011,6,76,1,10
$GPGGA,072544.000,5158.8830,N,00539.4645,E,1,07,1.3,4.7,M,47.2,M,,0000
$DATA1,18256,10000,155688,46962
$DATA2,14,4,1011,6,75,9,10,2
$GPGGA,072546.000,5158.8824,N,00539.4639,E,1,07,1.3,4.5,M,47.2,M,,0000
$DATA1,18383,10000,155688,47495
$DATA2,14,3,1011,8,75,7,8,4
$GPGGA,072548.000,5158.8818,N,00539.4628,E,1,07,1.3,4.5,M,47.2,M,,0000
$DATA1,17924,10000,149550,46440
$DATA2,14,2,1011,8,75,7,8,2
$GPGGA,072550.000,5158.8815,N,00539.4613,E,1,07,1.3,4.5,M,47.2,M,,0000
$DATA1,18329,10000,162338,51535
$DATA2,14,2,1011,5,75,8,10,3
$GPGGA,072552.000,5158.8810,N,00539.4595,E,1,07,1.3,4.7,M,47.2,M,,0000
$DATA1,18223,10000,186086,55504
$DATA2,14,1,1011,9,75,9,7,1
$GPGGA,072554.000,5158.8802,N,00539.4575,E,1,07,1.1,4.8,M,47.2,M,,0000
$DATA1,18090,10000,177450,57696
$DATA2,14,1,1011,9,76,7,4
$GPGGA,072556.000,5158.8794,N,00539.4550,E,1,07,1.3,4.8,M,47.2,M,,0000
$DATA1,17903,10000,162338,54123
$DATA2,14,1,1012,76,1,6,8
$GPGGA,072558.000,5158.8781,N,00539.4518,E,1,07,1.3,4.6,M,47.2,M,,0000
$DATA1,17997,10000,149550,46440
$DATA2,14,1012,1,76,3,5,8
$GPGGA,072600.000,5158.8768,N,00539.4484,E,1,08,1.0,4.5,M,47.2,M,,0000
$DATA1,18177,10000,138589,43507
$DATA2,14,1012,1,76,4,5,3
$GPGGA,072602.000,5158.8753,N,00539.4445,E,1,08,1.0,4.5,M,47.2,M,,0000
$DATA1,17900,10000,149550,44449
$DATA2,14,1012,3,76,5,4,1
$GPGGA,072604.000,5158.8734,N,00539.4406,E,1,08,1.0,4.7,M,47.2,M,,0000
$DATA1,18007,10000,155688,45928
$DATA2,13,9,1012,4,76,7,3,5
$GPGGA,072606.000,5158.8715,N,00539.4359,E,1,08,1.0,5.0,M,47.2,M,,0000
$DATA1,18280,10000,177450,46962
$DATA2,13,9,1012,4,77,3,4
$GPGGA,072608.000,5158.8694,N,00539.4305,E,1,07,1.3,5.4,M,47.2,M,,0000
$DATA1,18357,10000,162338,43507
$DATA2,13,8,1012,4,77,2,3,4
$GPGGA,072610.000,5158.8674,N,00539.4252,E,1,07,1.3,5.3,M,47.2,M,,0000
$DATA1,18047,10000,155688,43507
$DATA2,13,8,1012,4,77,5,3,2
$GPGGA,072612.000,5158.8653,N,00539.4196,E,1,07,1.3,5.5,M,47.2,M,,0000
$DATA1,17936,10000,162338,44933
$DATA2,13,8,1012,4,77,7,2,9
$GPGGA,072614.000,5158.8633,N,00539.4140,E,1,07,1.3,5.4,M,47.2,M,,0000
$DATA1,18206,10000,177450,45928
$DATA2,13,8,1012,4,77,8,3,4
$GPGGA,072616.000,5158.8617,N,00539.4088,E,1,07,1.3,5.4,M,47.2,M,,0000
$DATA1,18180,10000,129090,38885
$DATA2,13,8,1012,3,77,9,3,6
$GPGGA,072618.000,5158.8612,N,00539.4070,E,1,07,1.3,5.1,M,47.2,M,,0000
$DATA1,17015,10000,117000,37050
$DATA2,13,8,1012,4,78,3,3
$GPGGA,072620.000,5158.8612,N,00539.4068,E,1,08,1.0,4.8,M,47.2,M,,0000
$DATA1,16193,10000,103930,36357
$DATA2,13,8,1012,4,78,1,3,2
$GPGGA,072622.000,5158.8612,N,00539.4071,E,1,06,1.2,4.7,M,47.2,M,,0000
$DATA1,15298,10000,113444,45928
$DATA2,13,7,1012,4,78,2,3,1
$GPGGA,072624.000,5158.8611,N,00539.4077,E,1,08,1.0,4.6,M,47.2,M,,0000
$DATA1,13674,10000,133676,48038
$DATA2,13,7,1012,4,78,3,3,2
$GPGGA,072626.000,5158.8612,N,00539.4078,E,1,07,1.3,4.5,M,47.2,M,,0000
$DATA1,11655,10000,133676,44449
$DATA2,13,7,1012,4,78,5,3,4
$GPGGA,072628.000,5158.8614,N,00539.4074,E,1,08,1.0,4.5,M,47.2,M,,0000
$DATA1,10218,10000,133676,45928
$DATA2,13,7,1012,4,78,7,3,2
$GPGGA,072630.000,5158.8615,N,00539.4072,E,1,08,1.0,4.7,M,47.2,M,,0000
$DATA1,11186,10000,143867,42599
$DATA2,13,7,1012,4,78,8,3,3
$GPGGA,072632.000,5158.8615,N,00539.4072,E,1,08,1.0,4.7,M,47.2,M,,0000
$DATA1,12311,10000,120778,37766
$DATA2,13,7,1012,3,79,3,6
$GPGGA,072634.000,5158.8617,N,00539.4078,E,1,08,1.0,5.2,M,47.2,M,,0000
$DATA1,13359,10000,103930,36018
$DATA2,13,7,1012,4,79,1,3,5
$GPGGA,072636.000,5158.8621,N,00539.4089,E,1,08,1.0,5.4,M,47.2,M,,0000
$DATA1,14124,10000,95843,36018
$DATA2,13,7,1012,3,79,2,3,7
$GPGGA,072638.000,5158.8628,N,00539.4108,E,1,08,1.0,5.5,M,47.2,M,,0000
$DATA1,15438,10000,91093,36701
$DATA2,13,7,1012,3,79,3,3,6
$GPGGA,072640.000,5158.8639,N,00539.4129,E,1,08,1.0,5.7,M,47.2,M,,0000
$DATA1,15947,10000,91093,37406
$DATA2,13,7,1012,3,79,4,4
$GPGGA,072642.000,5158.8647,N,00539.4144,E,1,08,1.0,5.7,M,47.2,M,,0000
$DATA1,16526,10000,88884,38133
$DATA2,13,7,1012,4,79,4,3,4
$GPGGA,072644.000,5158.8654,N,00539.4159,E,1,08,1.0,6.0,M,47.2,M,,0000
$DATA1,16807,10000,88884,38885
$DATA2,13,7,1012,3,79,4,4,2
$GPGGA,072646.000,5158.8661,N,00539.4176,E,1,08,1.0,6.0,M,47.2,M,,0000
$DATA1,17019,10000,88884,39270
$DATA2,13,7,1012,3,79,4,4
$GPGGA,072648.000,5158.8668,N,00539.4202,E,1,08,1.0,6.0,M,47.2,M,,0000
$DATA1,17626,10000,88884,39662
$DATA2,13,7,1012,3,79,4,4,1
$GPGGA,072650.000,5158.8677,N,00539.4234,E,1,08,1.0,5.9,M,47.2,M,,0000
$DATA1,17548,10000,88884,40060
$DATA2,13,7,1012,4,79,3,3,5
$GPGGA,072652.000,5158.8690,N,00539.4270,E,1,08,1.0,5.8,M,47.2,M,,0000
$DATA1,18081,10000,91093,40877
$DATA2,13,7,1012,3,79,3,3,6
$GPGGA,072654.000,5158.8704,N,00539.4306,E,1,08,1.0,5.9,M,47.2,M,,0000
$DATA1,18185,10000,98400,41296
$DATA2,13,7,1012,3,79,2,3,6
$GPGGA,072656.000,5158.8716,N,00539.4331,E,1,07,1.0,6.0,M,47.2,M,,0000
$DATA1,18183,10000,93410,41296
$DATA2,13,7,1012,4,79,2,3
$GPGGA,072658.000,5158.8725,N,00539.4348,E,1,07,1.0,6.1,M,47.2,M,,0000
$DATA1,18186,10000,93410,41723
$DATA2,13,7,1012,3,79,2,4
$GPGGA,072700.000,5158.8735,N,00539.4367,E,1,08,1.0,6.3,M,47.2,M,,0000
$DATA1,18216,10000,98400,41723
$DATA2,13,7,1012,3,79,3,3,9
$GPGGA,072702.000,5158.8743,N,00539.4385,E,1,08,1.0,6.4,M,47.2,M,,0000
$DATA1,18091,10000,103930,42157
$DATA2,13,7,1012,2,79,3,4,5
$GPGGA,072704.000,5158.8751,N,00539.4404,E,1,08,1.0,6.4,M,47.2,M,,0000
$DATA1,18090,10000,103930,42157
$DATA2,13,7,1012,1,79,4,5,8
$GPGGA,072706.000,5158.8762,N,00539.4428,E,1,08,1.0,6.6,M,47.2,M,,0000
$DATA1,18054,10000,113444,43049
$DATA2,13,8,1011,8,79,4,7,7
$GPGGA,072708.000,5158.8776,N,00539.4461,E,1,07,1.3,6.7,M,47.2,M,,0000
$DATA1,18363,10000,110091,44933
$DATA2,13,8,1011,6,79,2,9,5
$GPGGA,072710.000,5158.8792,N,00539.4504,E,1,08,1.0,6.8,M,47.2,M,,0000
$DATA1,17908,10000,106925,44449
$DATA2,13,8,1011,6,79,1,10,1
$GPGGA,072712.000,5158.8809,N,00539.4547,E,1,07,1.3,6.7,M,47.2,M,,0000
$DATA1,18333,10000,103930,43973
$DATA2,13,8,1011,7,79,9,1
$GPGGA,072714.000,5158.8824,N,00539.4587,E,1,07,1.3,6.7,M,47.2,M,,0000
$DATA1,18346,10000,98400,42157
$DATA2,13,9,1011,7,78,9,8,6
$GPGGA,072716.000,5158.8833,N,00539.4621,E,1,07,1.3,6.8,M,47.2,M,,0000
$DATA1,18096,10000,95843,41723
$DATA2,13,9,1011,7,78,7,9,2
$GPGGA,072718.000,5158.8841,N,00539.4648,E,1,08,1.0,7.0,M,47.2,M,,0000
$DATA1,18076,10000,95843,42157
$DATA2,13,9,1011,7,78,5,8,9
$GPGGA,072720.000,5158.8847,N,00539.4661,E,1,08,1.0,7.3,M,47.2,M,,0000
$DATA1,17968,10000,93410,42157
$DATA2,14,1011,8,78,4,8,5
$GPGGA,072722.000,5158.8848,N,00539.4666,E,1,08,1.0,7.5,M,47.2,M,,0000
$DATA1,18368,10000,91093,42157
$DATA2,14,1011,7,78,3,8,7
$GPGGA,072724.000,5158.8849,N,00539.4665,E,1,07,1.0,7.7,M,47.2,M,,0000
$DATA1,17905,10000,91093,42157
$DATA2,14,1011,8,78,3,8,2
$GPGGA,072726.000,5158.8850,N,00539.4663,E,1,08,1.0,7.4,M,47.2,M,,0000
$DATA1,18364,10000,88884,42599
$DATA2,14,1011,8,78,4,7,8
$GPGGA,072728.000,5158.8849,N,00539.4660,E,1,08,1.0,7.4,M,47.2,M,,0000
$DATA1,18025,10000,91093,43049
$DATA2,14,1,1011,8,78,2,8,2
$GPGGA,072730.000,5158.8844,N,00539.4661,E,1,06,1.3,7.1,M,47.2,M,,0000
$DATA1,18208,10000,120778,44933
$DATA2,14,1,1011,8,78,2,8,2
$GPGGA,072732.000,5158.8835,N,00539.4668,E,1,08,1.0,6.9,M,47.2,M,,0000
$DATA1,17985,10000,169565,50922
$DATA2,14,2,1011,8,78,8,5
$GPGGA,072734.000,5158.8825,N,00539.4677,E,1,08,1.0,6.6,M,47.2,M,,0000
$DATA1,18388,10000,169565,47495
$DATA2,14,2,1011,9,77,8,7,6
$GPGGA,072736.000,5158.8814,N,00539.4687,E,1,07,1.3,6.7,M,47.2,M,,0000
$DATA1,17975,10000,143867,43973
$DATA2,14,3,1011,9,77,6,7,5
$GPGGA,072738.000,5158.8811,N,00539.4691,E,1,06,2.0,6.5,M,47.2,M,,0000
$DATA1,18097,10000,113444,42599
$DATA2,14,3,1011,9,77,5,7,1
$GPGGA,072740.000,5158.8810,N,00539.4696,E,1,06,2.0,6.6,M,47.2,M,,0000
$DATA1,18130,10000,103930,42157
$DATA2,14,3,1011,8,77,4,7,8
$GPGGA,072742.000,5158.8811,N,00539.4695,E,1,06,2.0,6.7,M,47.2,M,,0000
$DATA1,18378,10000,103930,42599
$DATA2,14,3,1011,8,77,2,8,1
$GPGGA,072744.000,5158.8813,N,00539.4692,E,1,07,1.3,6.4,M,47.2,M,,0000
$DATA1,17963,10000,101092,43049
$DATA2,14,4,1011,76,9,14,9
$GPGGA,072746.000,5158.8819,N,00539.4692,E,1,05,1.6,6.1,M,47.2,M,,0000
$DATA1,18025,10000,95843,42599
$DATA2,14,5,1011,5,76,6,10,6
$GPGGA,072748.000,5158.8832,N,00539.4713,E,1,07,1.3,5.8,M,47.2,M,,0000
$DATA1,18219,10000,91093,42599
$DATA2,14,6,1011,6,76,5,10,2
$GPGGA,072750.000,5158.8841,N,00539.4740,E,1,07,1.3,5.6,M,47.2,M,,0000
$DATA1,18277,10000,91093,42599
$DATA2,14,7,1011,5,76,2,10,2
$GPGGA,072752.000,5158.8833,N,00539.4775,E,1,07,1.2,5.5,M,47.2,M,,0000
$DATA1,18291,10000,88884,43049
$DATA2,14,8,1011,8,75,9,8,5
$GPGGA,072754.000,5158.8827,N,00539.4794,E,1,08,1.0,5.2,M,47.2,M,,0000
$DATA1,18271,10000,88884,43049
$DATA2,14,9,1011,6,75,6,9,6
$GPGGA,072756.000,5158.8827,N,00539.4801,E,1,08,1.0,5.3,M,47.2,M,,0000
$DATA1,17968,10000,88884,43507
$DATA2,14,9,1011,6,75,4,9,7
$GPGGA,072758.000,5158.8833,N,00539.4814,E,1,08,1.0,5.2,M,47.2,M,,0000
$DATA1,18223,10000,88884,43507
$DATA2,15,1011,5,75,10,3
$GPGGA,072800.000,5158.8839,N,00539.4830,E,1,08,1.0,5.2,M,47.2,M,,0000
$DATA1,18393,10000,88884,43973
$DATA2,15,1011,7,74,8,8,8
$GPGGA,072802.000,5158.8845,N,00539.4846,E,1,07,1.0,5.0,M,47.2,M,,0000
$DATA1,18228,10000,88884,43973
$DATA2,15,1011,6,74,6,10
$GPGGA,072804.000,5158.8851,N,00539.4863,E,1,08,1.0,5.1,M,47.2,M,,0000
$DATA1,18247,10000,88884,43973
$DATA2,15,1,1011,6,74,9,9,8
$GPGGA,072806.000,5158.8858,N,00539.4881,E,1,08,1.0,5.4,M,47.2,M,,0000
$DATA1,18283,10000,86775,43973
$DATA2,15,1,1011,6,75,4,9,5
$GPGGA,072808.000,5158.8865,N,00539.4898,E,1,08,1.0,5.1,M,47.2,M,,0000
$DATA1,18263,10000,86775,43973
$DATA2,15,2,1011,6,75,8,10,1
$GPGGA,072810.000,5158.8866,N,00539.4903,E,1,08,1.0,5.3,M,47.2,M,,0000
$DATA1,17939,10000,103930,46440
$DATA2,15,2,1011,5,75,7,10,7
$GPGGA,072812.000,5158.8872,N,00539.4891,E,1,08,1.0,5.6,M,47.2,M,,0000
$DATA1,17995,10000,106925,45426
$DATA2,15,2,1009,8,75,7,25
$GPGGA,072814.000,5158.8875,N,00539.4881,E,1,08,1.0,5.6,M,47.2,M,,0000
$DATA1,18350,10000,95843,43973
$DATA2,15,3,1009,8,75,4,24,5
$GPGGA,072816.000,5158.8872,N,00539.4879,E,1,08,1.0,5.8,M,47.2,M,,0000
$DATA1,18333,10000,91093,43973
$DATA2,15,4,1009,9,74,8,23,9
$GPGGA,072818.000,5158.8866,N,00539.4883,E,1,08,1.0,5.7,M,47.2,M,,0000
$DATA1,18388,10000,88884,43973
$DATA2,15,4,1009,8,74,2,25
$GPGGA,072820.000,5158.8866,N,00539.4894,E,1,08,1.0,5.8,M,47.2,M,,0000
$DATA1,18323,10000,88884,43973
$DATA2,15,5,1009,9,73,8,24,3
$GPGGA,072822.000,5158.8868,N,00539.4902,E,1,07,1.0,6.0,M,47.2,M,,0000
$DATA1,18397,10000,88884,43973
$DATA2,15,6,1009,8,73,5,24,9
$GPGGA,072824.000,5158.8867,N,00539.4897,E,1,07,1.3,5.9,M,47.2,M,,0000
$DATA1,18006,10000,88884,43973
$DATA2,15,6,1009,7,73,2,25,2
$GPGGA,072826.000,5158.8868,N,00539.4894,E,1,08,1.0,5.8,M,47.2,M,,0000
$DATA1,18270,10000,91093,44449
$DATA2,15,7,1009,8,73,24,9
$GPGGA,072828.000,5158.8873,N,00539.4891,E,1,08,1.0,5.8,M,47.2,M,,0000
$DATA1,18140,10000,91093,43973
$DATA2,15,7,1009,8,72,6,24,6
$GPGGA,072830.000,5158.8874,N,00539.4890,E,1,07,1.0,5.5,M,47.2,M,,0000
$DATA1,17947,10000,91093,43973
$DATA2,15,7,1009,9,72,7,24,2
$GPGGA,072832.000,5158.8875,N,00539.4889,E,1,08,1.0,5.4,M,47.2,M,,0000
$DATA1,18152,10000,91093,43973
$DATA2,15,7,1009,9,72,7,24,3
$GPGGA,072834.000,5158.8875,N,00539.4889,E,1,08,1.0,5.0,M,47.2,M,,0000
$DATA1,18314,10000,93410,44449
$DATA2,15,8,1009,9,72,9,24,1
$GPGGA,072836.000,5158.8876,N,00539.4887,E,1,07,1.0,4.6,M,47.2,M,,0000
$DATA1,17947,10000,93410,43973
$DATA2,15,8,1009,9,73,1,24,3
$GPGGA,072838.000,5158.8877,N,00539.4885,E,1,07,1.3,4.4,M,47.2,M,,0000
$DATA1,17954,10000,103930,47495
$DATA2,15,9,1009,7,73,1,26
$GPGGA,072838.000,5158.8878,N,00539.4883,E,1,08,1.0,4.7,M,47.2,M,,0000
$DATA1,18084,10000,106925,53455
$DATA2,15,8,1009,7,73,25,4
$GPGGA,072840.000,5158.8877,N,00539.4883,E,1,08,1.0,4.8,M,47.2,M,,0000
$DATA1,18394,10000,98400,46962
$DATA2,15,8,1009,8,73,1,24,6
$GPGGA,072842.000,5158.8877,N,00539.4883,E,1,08,1.0,4.8,M,47.2,M,,0000
$DATA1,18203,10000,93410,43973
$DATA2,15,9,1009,8,73,3,24,7
$GPGGA,072844.000,5158.8877,N,00539.4883,E,1,08,1.0,4.8,M,47.2,M,,0000
$DATA1,18399,10000,91093,43049
$DATA2,16,1009,9,73,8,24
$GPGGA,072846.000,5158.8877,N,00539.4883,E,1,06,1.4,4.8,M,47.2,M,,0000
$DATA1,18320,10000,88884,43049
$DATA2,16,2,1010,74,4,23
$GPGGA,072848.000,5158.8877,N,00539.4883,E,1,08,1.0,4.8,M,47.2,M,,0000
$DATA1,17998,10000,86775,43049
$DATA2,16,3,1010,3,74,8,21
